[
  {
    "id": "richland",
    "name": "Moove In Richland",
    "address": "651 S Richland Ave",
    "city": "York",
    "state": "PA",
    "zip": "17403",
    "phone": "(717) 900-1700",
    "hours": "Gate 6AM–10PM",
    "lat": 39.9426,
    "lng": -76.7144,
    "sizes": ["Small", "Medium", "Large"],
    "features": ["Elevator", "Climate Controlled"],
    "hasMap": true,
    "dataUrl": "/data/facility-richland.json"
  },
  {
    "id": "buena",
    "name": "Moove In Buena",
    "address": "714 S Harding Hwy",
    "city": "Buena",
    "state": "NJ",
    "zip": "08310",
    "phone": "(856) 219-4727",
    "hours": "Gate 6AM–10PM",
    "lat": 39.5193,
    "lng": -74.9313,
    "sizes": ["Small", "Medium", "Large"],
    "features": [],
    "hasMap": false,
    "dataUrl": ""
  },
  {
    "id": "pennsauken",
    "name": "Moove In Pennsauken",
    "address": "6504 S Crescent Blvd",
    "city": "Pennsauken",
    "state": "NJ",
    "zip": "08109",
    "phone": "(856) 663-4200",
    "hours": "Gate 6AM–10PM",
    "lat": 39.9566,
    "lng": -75.0580,
    "sizes": ["Small", "Medium", "Large"],
    "features": [],
    "hasMap": false,
    "dataUrl": ""
  },
  {
    "id": "philadelphia",
    "name": "Moove In Philadelphia",
    "address": "2044 E Venango St",
    "city": "Philadelphia",
    "state": "PA",
    "zip": "19134",
    "phone": "(215) 288-5800",
    "hours": "Gate 6AM–10PM",
    "lat": 39.9926,
    "lng": -75.1152,
    "sizes": ["Small", "Medium", "Large"],
    "features": ["Climate Controlled"],
    "hasMap": false,
    "dataUrl": ""
  },
  {
    "id": "lititz",
    "name": "Moove In Lititz",
    "address": "20 Crosswinds Dr",
    "city": "Lititz",
    "state": "PA",
    "zip": "17543",
    "phone": "(717) 626-9991",
    "hours": "Gate 6AM–10PM",
    "lat": 40.1574,
    "lng": -76.3022,
    "sizes": ["Small", "Medium", "Large"],
    "features": [],
    "hasMap": false,
    "dataUrl": ""
  },
  {
    "id": "shiloh",
    "name": "Moove In Shiloh",
    "address": "4530 Bull Rd",
    "city": "Dover",
    "state": "PA",
    "zip": "17315",
    "phone": "(717) 767-4466",
    "hours": "Gate 6AM–10PM",
    "lat": 40.0012,
    "lng": -76.7386,
    "sizes": ["Small", "Medium", "Large"],
    "features": [],
    "hasMap": false,
    "dataUrl": ""
  },
  {
    "id": "chambers-road",
    "name": "Moove In Chambers Road",
    "address": "610 Chambers Rd",
    "city": "York",
    "state": "PA",
    "zip": "17402",
    "phone": "(717) 751-6435",
    "hours": "Gate 6AM–10PM",
    "lat": 39.9665,
    "lng": -76.6870,
    "sizes": ["Small", "Medium", "Large", "Parking"],
    "features": [],
    "hasMap": false,
    "dataUrl": ""
  },
  {
    "id": "glen-rock",
    "name": "Moove In Glen Rock",
    "address": "61 Harvey Ct",
    "city": "Glen Rock",
    "state": "PA",
    "zip": "17327",
    "phone": "(717) 235-0052",
    "hours": "Gate 6AM–10PM",
    "lat": 39.7931,
    "lng": -76.7308,
    "sizes": ["Small", "Medium", "Large"],
    "features": ["Climate Controlled"],
    "hasMap": false,
    "dataUrl": ""
  },
  {
    "id": "franklin",
    "name": "Moove In Franklin",
    "address": "619 Rte 23",
    "city": "Franklin",
    "state": "NJ",
    "zip": "07416",
    "phone": "(973) 827-2024",
    "hours": "Gate 6AM–10PM",
    "lat": 41.1220,
    "lng": -74.5818,
    "sizes": ["Small", "Medium", "Large"],
    "features": [],
    "hasMap": false,
    "dataUrl": ""
  },
  {
    "id": "frankfort",
    "name": "Moove In Frankfort",
    "address": "126 S Litchfield St",
    "city": "Frankfort",
    "state": "NY",
    "zip": "13340",
    "phone": "(315) 894-4040",
    "hours": "Gate 6AM–10PM",
    "lat": 43.0387,
    "lng": -75.0704,
    "sizes": ["Small", "Medium", "Large"],
    "features": [],
    "hasMap": false,
    "dataUrl": ""
  },
  {
    "id": "pennsburg",
    "name": "Moove In Pennsburg Geryville",
    "address": "2774 Geryville Pike",
    "city": "Pennsburg",
    "state": "PA",
    "zip": "18073",
    "phone": "(215) 679-5555",
    "hours": "Gate 6AM–10PM",
    "lat": 40.3928,
    "lng": -75.4921,
    "sizes": ["Small", "Medium", "Large"],
    "features": [],
    "hasMap": false,
    "dataUrl": ""
  },
  {
    "id": "pottstown",
    "name": "Moove In High Street",
    "address": "163 S High St",
    "city": "Pottstown",
    "state": "PA",
    "zip": "19464",
    "phone": "(610) 970-0200",
    "hours": "Gate 6AM–10PM",
    "lat": 40.2454,
    "lng": -75.6496,
    "sizes": ["Small", "Medium", "Large"],
    "features": [],
    "hasMap": false,
    "dataUrl": ""
  },
  {
    "id": "finksburg",
    "name": "Moove In Finksburg",
    "address": "3240 Old Westminster Pike",
    "city": "Finksburg",
    "state": "MD",
    "zip": "21048",
    "phone": "(410) 705-7192",
    "hours": "Gate 6AM–10PM",
    "lat": 39.4937,
    "lng": -76.8894,
    "sizes": ["Small", "Medium", "Large"],
    "features": ["Climate Controlled"],
    "hasMap": false,
    "dataUrl": ""
  },
  {
    "id": "new-london",
    "name": "Moove In Westwood Ave",
    "address": "200 Westwood Ave",
    "city": "New London",
    "state": "CT",
    "zip": "06320",
    "phone": "(860) 447-1555",
    "hours": "Gate 6AM–10PM",
    "lat": 41.3557,
    "lng": -72.0995,
    "sizes": ["Small", "Medium", "Large"],
    "features": [],
    "hasMap": false,
    "dataUrl": ""
  },
  {
    "id": "iowa-city",
    "name": "Moove In Waterfront",
    "address": "2222 Old Hwy 218 S",
    "city": "Iowa City",
    "state": "IA",
    "zip": "52240",
    "phone": "(319) 337-3506",
    "hours": "Gate 6AM–10PM",
    "lat": 41.6411,
    "lng": -91.5302,
    "sizes": ["Small", "Medium", "Large"],
    "features": [],
    "hasMap": false,
    "dataUrl": ""
  },
  {
    "id": "jonestown",
    "name": "Moove In Jonestown",
    "address": "10677 Allentown Blvd",
    "city": "Jonestown",
    "state": "PA",
    "zip": "17038",
    "phone": "(717) 865-6254",
    "hours": "Gate 6AM–10PM",
    "lat": 40.4134,
    "lng": -76.4784,
    "sizes": ["Small", "Medium", "Large"],
    "features": [],
    "hasMap": false,
    "dataUrl": ""
  },
  {
    "id": "millsboro",
    "name": "Moove In Millsboro",
    "address": "24077 Country Living Rd",
    "city": "Millsboro",
    "state": "DE",
    "zip": "19966",
    "phone": "(302) 934-7017",
    "hours": "Gate 6AM–10PM",
    "lat": 38.5918,
    "lng": -75.2913,
    "sizes": ["Small", "Medium", "Large"],
    "features": [],
    "hasMap": false,
    "dataUrl": ""
  },
  {
    "id": "telford",
    "name": "Moove In Telford",
    "address": "3090 State Rd",
    "city": "Telford",
    "state": "PA",
    "zip": "18969",
    "phone": "(267) 404-2132",
    "hours": "Gate 6AM–10PM",
    "lat": 40.3223,
    "lng": -75.3285,
    "sizes": ["Small", "Medium", "Large"],
    "features": [],
    "hasMap": false,
    "dataUrl": ""
  },
  {
    "id": "sycamore",
    "name": "Moove In Sycamore",
    "address": "2517 Sycamore St",
    "city": "Harrisburg",
    "state": "PA",
    "zip": "17111",
    "phone": "(717) 996-8950",
    "hours": "Gate 6AM–10PM",
    "lat": 40.2737,
    "lng": -76.8267,
    "sizes": ["Small", "Medium", "Large"],
    "features": [],
    "hasMap": false,
    "dataUrl": ""
  },
  {
    "id": "valley-green",
    "name": "Moove In Valley Green",
    "address": "140 Valley Green Dr",
    "city": "Etters",
    "state": "PA",
    "zip": "17319",
    "phone": "(717) 938-8222",
    "hours": "Gate 6AM–10PM",
    "lat": 40.1501,
    "lng": -76.7857,
    "sizes": ["Small", "Medium", "Large"],
    "features": [],
    "hasMap": false,
    "dataUrl": ""
  },
  {
    "id": "mickleton",
    "name": "Moove In Mickleton",
    "address": "1575 Kings Hwy",
    "city": "Mickleton",
    "state": "NJ",
    "zip": "08056",
    "phone": "(856) 423-3400",
    "hours": "Gate 6AM–10PM",
    "lat": 39.7868,
    "lng": -75.2371,
    "sizes": ["Small", "Medium", "Large"],
    "features": [],
    "hasMap": false,
    "dataUrl": ""
  },
  {
    "id": "ladysmith",
    "name": "Moove In Ladysmith",
    "address": "14025 Jefferson Davis Hwy",
    "city": "Ladysmith",
    "state": "VA",
    "zip": "22501",
    "phone": "(804) 448-3300",
    "hours": "Gate 6AM–10PM",
    "lat": 38.0665,
    "lng": -77.5064,
    "sizes": ["Small", "Medium", "Large"],
    "features": [],
    "hasMap": false,
    "dataUrl": ""
  },
  {
    "id": "lewes",
    "name": "Moove In Lewes",
    "address": "32244 Nassau Rd",
    "city": "Lewes",
    "state": "DE",
    "zip": "19958",
    "phone": "(302) 208-5196",
    "hours": "Gate 6AM–10PM",
    "lat": 38.7745,
    "lng": -75.1394,
    "sizes": ["Small", "Medium", "Large"],
    "features": [],
    "hasMap": false,
    "dataUrl": ""
  },
  {
    "id": "allentown",
    "name": "Moove In Allentown",
    "address": "2134 W Highland St",
    "city": "Allentown",
    "state": "PA",
    "zip": "18104",
    "phone": "(610) 432-4242",
    "hours": "Gate 6AM–10PM",
    "lat": 40.6084,
    "lng": -75.4902,
    "sizes": ["Small", "Medium", "Large"],
    "features": [],
    "hasMap": false,
    "dataUrl": ""
  },
  {
    "id": "norwich",
    "name": "Moove In Salem Turnpike",
    "address": "210 Salem Tpke",
    "city": "Norwich",
    "state": "CT",
    "zip": "06360",
    "phone": "(860) 889-8900",
    "hours": "Gate 6AM–10PM",
    "lat": 41.5243,
    "lng": -72.0759,
    "sizes": ["Small", "Medium", "Large"],
    "features": [],
    "hasMap": false,
    "dataUrl": ""
  },
  {
    "id": "andover",
    "name": "Moove In Andover",
    "address": "230 Rte 206",
    "city": "Andover",
    "state": "NJ",
    "zip": "07821",
    "phone": "(973) 786-5558",
    "hours": "Gate 6AM–10PM",
    "lat": 40.9878,
    "lng": -74.7432,
    "sizes": ["Small", "Medium", "Large"],
    "features": [],
    "hasMap": false,
    "dataUrl": ""
  },
  {
    "id": "rome",
    "name": "Moove In Rome",
    "address": "1620 Black River Blvd",
    "city": "Rome",
    "state": "NY",
    "zip": "13440",
    "phone": "(315) 336-7867",
    "hours": "Gate 6AM–10PM",
    "lat": 43.2128,
    "lng": -75.4557,
    "sizes": ["Small", "Medium", "Large"],
    "features": [],
    "hasMap": false,
    "dataUrl": ""
  },
  {
    "id": "pawling",
    "name": "Moove In Pawling",
    "address": "26 Front St",
    "city": "Pawling",
    "state": "NY",
    "zip": "12564",
    "phone": "(845) 855-1619",
    "hours": "Gate 6AM–10PM",
    "lat": 41.5623,
    "lng": -73.6035,
    "sizes": ["Small", "Medium", "Large"],
    "features": [],
    "hasMap": false,
    "dataUrl": ""
  },
  {
    "id": "goldsboro",
    "name": "Moove In Goldsboro",
    "address": "117 Industry Ct",
    "city": "Goldsboro",
    "state": "NC",
    "zip": "27530",
    "phone": "(919) 778-8890",
    "hours": "Gate 6AM–10PM",
    "lat": 35.3849,
    "lng": -77.9928,
    "sizes": ["Small", "Medium", "Large"],
    "features": [],
    "hasMap": false,
    "dataUrl": ""
  },
  {
    "id": "belle-road",
    "name": "Moove In Belle Road",
    "address": "890 Belle Rd",
    "city": "York",
    "state": "PA",
    "zip": "17403",
    "phone": "(717) 741-9555",
    "hours": "Gate 6AM–10PM",
    "lat": 39.9520,
    "lng": -76.7350,
    "sizes": ["Small", "Medium", "Large", "RV/Boat"],
    "features": ["Drive Up"],
    "hasMap": false,
    "dataUrl": ""
  },
  {
    "id": "pinehurst",
    "name": "Moove In Pinehurst",
    "address": "10545 US-15",
    "city": "Pinehurst",
    "state": "NC",
    "zip": "28374",
    "phone": "(910) 295-2505",
    "hours": "Gate 6AM–10PM",
    "lat": 35.1955,
    "lng": -79.4695,
    "sizes": ["Small", "Medium", "Large"],
    "features": [],
    "hasMap": false,
    "dataUrl": ""
  }
]
